$GPGGA,145448.000,2232.1005,N,11357.7996,E,1,03,4.3,97.0,M,,,,0000
$GPGLL,2232.1005,N,11357.7996,E,145448.000,A
$GPGSA,A,2,18,09,25,,,,,,,,,,4.4,4.3,1.0
$GPGSV,3,1,10,18,64,003,31,21,52,210,,09,50,034,38,22,35,326,
$GPGSV,3,2,10,12,30,118,,27,28,036,,14,25,283,,25,22,160,21
$GPGSV,3,3,10,15,21,054,,30,01,192,
$GPRMC,145448.000,A,2232.1005,N,11357.7996,E,0.84,334.65,171110,,
$GPGGA,145449.000,2232.1005,N,11357.7997,E,1,03,4.3,97.0,M,,,,0000
$GPGLL,2232.1005,N,11357.7997,E,145449.000,A
$GPRMC,145449.000,A,2232.1005,N,11357.7997,E,0.39,334.65,171110,,
$GPGGA,145450.000,2232.1001,N,11357.7999,E,1,03,4.3,97.0,M,,,,0000
$GPGLL,2232.1001,N,11357.7999,E,145450.000,A
$GPRMC,145450.000,A,2232.1001,N,11357.7999,E,0.86,334.65,171110,,
$GPGGA,145451.000,2232.1071,N,11357.7914,E,1,04,2.3,97.0,M,,,,0000
$GPGLL,2232.1071,N,11357.7914,E,145451.000,A
$GPRMC,145451.000,A,2232.1071,N,11357.7914,E,2.91,334.65,171110,,
$GPGGA,145452.000,2232.1293,N,11357.7627,E,1,04,2.3,-65.0,M,,,,0000
$GPGLL,2232.1293,N,11357.7627,E,145452.000,A
$GPRMC,145452.000,A,2232.1293,N,11357.7627,E,1.71,334.65,171110,,
$GPGGA,145453.000,2232.1293,N,11357.7627,E,1,04,2.3,-64.0,M,,,,0000
$GPGLL,2232.1293,N,11357.7627,E,145453.000,A
$GPGSA,A,3,18,09,15,25,,,,,,,,,2.5,2.3,1.0
$GPGSV,3,1,10,18,64,003,31,21,52,210,,09,50,034,38,22,35,326,
$GPGSV,3,2,10,12,30,118,,27,28,036,,14,25,283,,25,22,160,21
$GPGSV,3,3,10,15,21,054,16,30,01,192,
$GPRMC,145453.000,A,2232.1293,N,11357.7627,E,1.53,334.65,171110,,
$GPGGA,145454.000,2232.1292,N,11357.7628,E,1,04,2.3,-64.0,M,,,,0000
$GPGLL,2232.1292,N,11357.7628,E,145454.000,A
$GPRMC,145454.000,A,2232.1292,N,11357.7628,E,0.00,334.65,171110,,
$GPGGA,145455.000,2232.1291,N,11357.7629,E,1,03,4.3,-64.0,M,,,,0000
$GPGLL,2232.1291,N,11357.7629,E,145455.000,A
$GPRMC,145455.000,A,2232.1291,N,11357.7629,E,0.00,334.65,171110,,
$GPGGA,145456.000,2232.1290,N,11357.7630,E,1,03,4.3,-64.0,M,,,,0000
$GPGLL,2232.1290,N,11357.7630,E,145456.000,A
$GPRMC,145456.000,A,2232.1290,N,11357.7630,E,0.00,334.65,171110,,
$GPGGA,145457.000,2232.1290,N,11357.7631,E,1,03,4.3,-64.0,M,,,,0000
$GPGLL,2232.1290,N,11357.7631,E,145457.000,A
$GPRMC,145457.000,A,2232.1290,N,11357.7631,E,0.00,334.65,171110,,
$GPGGA,145458.000,2232.1289,N,11357.7631,E,1,03,4.3,-64.0,M,,,,0000
$GPGLL,2232.1289,N,11357.7631,E,145458.000,A
$GPGSA,A,2,18,09,25,,,,,,,,,,4.4,4.3,1.0
$GPGSV,3,1,10,18,64,003,30,21,52,210,,09,50,034,39,22,35,326,
$GPGSV,3,2,10,12,30,118,,27,28,036,,14,25,283,,25,22,160,22
$GPGSV,3,3,10,15,21,054,17,30,01,192,
$GPRMC,145458.000,A,2232.1289,N,11357.7631,E,0.00,334.65,171110,,
$GPGGA,145459.000,2232.1289,N,11357.7632,E,1,03,4.3,-64.0,M,,,,0000
$GPGLL,2232.1289,N,11357.7632,E,145459.000,A
$GPRMC,145459.000,A,2232.1289,N,11357.7632,E,0.00,334.65,171110,,
$GPGGA,145500.000,2232.1289,N,11357.7632,E,1,03,4.3,-64.0,M,,,,0000
$GPGLL,2232.1289,N,11357.7632,E,145500.000,A
$GPRMC,145500.000,A,2232.1289,N,11357.7632,E,0.00,334.65,171110,,
$GPGGA,145501.000,2232.1288,N,11357.7632,E,1,03,4.3,-64.0,M,,,,0000
$GPGLL,2232.1288,N,11357.7632,E,145501.000,A
$GPRMC,145501.000,A,2232.1288,N,11357.7632,E,0.00,334.65,171110,,
$GPGGA,145502.000,2232.1288,N,11357.7632,E,1,03,4.3,-64.0,M,,,,0000
$GPGLL,2232.1288,N,11357.7632,E,145502.000,A
$GPRMC,145502.000,A,2232.1288,N,11357.7632,E,0.00,334.65,171110,,
$GPGGA,145503.000,2232.1288,N,11357.7633,E,1,03,4.3,-64.0,M,,,,0000
$GPGLL,2232.1288,N,11357.7633,E,145503.000,A
$GPGSA,A,2,18,09,25,,,,,,,,,,4.4,4.3,1.0
$GPGSV,3,1,10,18,64,003,30,21,52,210,,09,50,034,39,22,35,326,
$GPGSV,3,2,10,12,30,118,,27,28,036,,14,25,283,,25,22,160,22
$GPGSV,3,3,10,15,21,054,18,30,01,192,
$GPRMC,145503.000,A,2232.1288,N,11357.7633,E,0.00,334.65,171110,,
$GPGGA,145504.000,2232.1288,N,11357.7633,E,1,03,4.3,-64.0,M,,,,0000
$GPGLL,2232.1288,N,11357.7633,E,145504.000,A
$GPRMC,145504.000,A,2232.1288,N,11357.7633,E,0.00,334.65,171110,,
$GPGGA,145505.000,2232.1288,N,11357.7633,E,1,03,4.3,-64.0,M,,,,0000
$GPGLL,2232.1288,N,11357.7633,E,145505.000,A
$GPRMC,145505.000,A,2232.1288,N,11357.7633,E,0.00,334.65,171110,,
$GPGGA,145506.000,2232.1288,N,11357.7633,E,1,03,4.3,-64.0,M,,,,0000
$GPGLL,2232.1288,N,11357.7633,E,145506.000,A
$GPRMC,145506.000,A,2232.1288,N,11357.7633,E,0.00,334.65,171110,,
$GPGGA,145507.000,2232.1288,N,11357.7633,E,1,04,2.3,-64.0,M,,,,0000
$GPGLL,2232.1288,N,11357.7633,E,145507.000,A
$GPRMC,145507.000,A,2232.1288,N,11357.7633,E,0.00,334.65,171110,,
$GPGGA,145508.000,2232.1288,N,11357.7633,E,1,04,2.3,-64.0,M,,,,0000
$GPGLL,2232.1288,N,11357.7633,E,145508.000,A
$GPGSA,A,3,18,09,15,25,,,,,,,,,2.5,2.3,1.0
$GPGSV,3,1,10,18,64,003,29,21,52,210,,09,50,034,39,22,35,326,
$GPGSV,3,2,10,12,30,118,,27,28,036,,14,25,283,,25,22,160,22
$GPGSV,3,3,10,15,21,054,19,30,01,192,
$GPRMC,145508.000,A,2232.1288,N,11357.7633,E,0.00,334.65,171110,,
$GPGGA,145509.000,2232.1288,N,11357.7633,E,1,04,2.3,-64.0,M,,,,0000
$GPGLL,2232.1288,N,11357.7633,E,145509.000,A
$GPRMC,145509.000,A,2232.1288,N,11357.7633,E,0.00,334.65,171110,,
$GPGGA,145510.000,2232.1288,N,11357.7633,E,1,04,2.3,-64.0,M,,,,0000
$GPGLL,2232.1288,N,11357.7633,E,145510.000,A
$GPRMC,145510.000,A,2232.1288,N,11357.7633,E,0.00,334.65,171110,,
$GPGGA,145511.000,2232.1288,N,11357.7633,E,1,05,6.0,-64.0,M,,,,0000
$GPGLL,2232.1288,N,11357.7633,E,145511.000,A
$GPRMC,145511.000,A,2232.1288,N,11357.7633,E,0.00,334.65,171110,,
$GPGGA,145512.000,2232.1288,N,11357.7633,E,1,05,6.0,-64.0,M,,,,0000
$GPGLL,2232.1288,N,11357.7633,E,145512.000,A
$GPRMC,145512.000,A,2232.1288,N,11357.7633,E,0.00,334.65,171110,,
$GPGGA,145513.000,2232.1288,N,11357.7633,E,1,05,6.0,-64.0,M,,,,0000
$GPGLL,2232.1288,N,11357.7633,E,145513.000,A
$GPGSA,A,3,18,09,15,25,27,,,,,,,,9.0,6.0,6.7
$GPGSV,3,1,10,18,64,003,28,21,52,210,,09,50,034,39,22,35,326,
$GPGSV,3,2,10,12,30,118,,27,28,036,15,14,25,283,,25,22,160,22
$GPGSV,3,3,10,15,21,054,21,30,01,192,
$GPRMC,145513.000,A,2232.1288,N,11357.7633,E,0.00,334.65,171110,,
$GPGGA,145514.000,2232.1288,N,11357.7633,E,1,05,6.0,-64.0,M,,,,0000
$GPGLL,2232.1288,N,11357.7633,E,145514.000,A
$GPRMC,145514.000,A,2232.1288,N,11357.7633,E,0.00,334.65,171110,,
$GPGGA,145515.000,2232.1288,N,11357.7633,E,1,05,6.0,-64.0,M,,,,0000
$GPGLL,2232.1288,N,11357.7633,E,145515.000,A
$GPRMC,145515.000,A,2232.1288,N,11357.7633,E,0.00,334.65,171110,,
$GPGGA,145516.000,2232.1288,N,11357.7633,E,1,05,6.0,-64.0,M,,,,0000
$GPGLL,2232.1288,N,11357.7633,E,145516.000,A
$GPRMC,145516.000,A,2232.1288,N,11357.7633,E,0.00,334.65,171110,,
$GPGGA,145517.000,2232.1288,N,11357.7633,E,1,05,6.0,-64.0,M,,,,0000
$GPGLL,2232.1288,N,11357.7633,E,145517.000,A
$GPRMC,145517.000,A,2232.1288,N,11357.7633,E,0.00,334.65,171110,,
$GPGGA,145518.000,2232.1287,N,11357.7633,E,1,04,2.3,-64.0,M,,,,0000
$GPGLL,2232.1287,N,11357.7633,E,145518.000,A
$GPGSA,A,3,18,09,15,25,,,,,,,,,2.5,2.3,1.0
$GPGSV,3,1,10,18,64,003,26,21,52,210,,09,50,034,39,22,35,326,
$GPGSV,3,2,10,12,30,118,,27,28,036,14,14,25,283,,25,22,160,22
$GPGSV,3,3,10,15,21,054,21,30,01,192,
$GPRMC,145518.000,A,2232.1287,N,11357.7633,E,0.00,334.65,171110,,
$GPGGA,145519.000,2232.1287,N,11357.7633,E,1,04,2.3,-64.0,M,,,,0000
$GPGLL,2232.1287,N,11357.7633,E,145519.000,A
$GPRMC,145519.000,A,2232.1287,N,11357.7633,E,0.00,334.65,171110,,
$GPGGA,145520.000,2232.1287,N,11357.7633,E,1,04,2.3,-64.0,M,,,,0000
$GPGLL,2232.1287,N,11357.7633,E,145520.000,A
$GPRMC,145520.000,A,2232.1287,N,11357.7633,E,0.00,334.65,171110,,
$GPGGA,145521.000,2232.1287,N,11357.7633,E,1,04,2.3,-64.0,M,,,,0000
$GPGLL,2232.1287,N,11357.7633,E,145521.000,A
$GPRMC,145521.000,A,2232.1287,N,11357.7633,E,0.00,334.65,171110,,
$GPGGA,145522.000,2232.1287,N,11357.7633,E,1,04,2.3,-64.0,M,,,,0000
$GPGLL,2232.1287,N,11357.7633,E,145522.000,A
$GPRMC,145522.000,A,2232.1287,N,11357.7633,E,0.00,334.65,171110,,
$GPGGA,145523.000,2232.1287,N,11357.7633,E,1,04,2.3,-64.0,M,,,,0000
$GPGLL,2232.1287,N,11357.7633,E,145523.000,A
$GPGSA,A,3,18,09,15,25,,,,,,,,,2.5,2.3,1.0
$GPGSV,3,1,10,18,64,003,20,21,52,210,,09,50,034,39,22,35,326,
$GPGSV,3,2,10,12,30,118,,27,28,036,14,14,25,283,,25,22,160,22
$GPGSV,3,3,10,15,21,054,22,30,01,192,
$GPRMC,145523.000,A,2232.1287,N,11357.7633,E,0.00,334.65,171110,,
$GPGGA,145524.000,2232.1287,N,11357.7633,E,1,04,2.3,-64.0,M,,,,0000
$GPGLL,2232.1287,N,11357.7633,E,145524.000,A
$GPRMC,145524.000,A,2232.1287,N,11357.7633,E,0.00,334.65,171110,,
$GPGGA,145525.000,2232.1287,N,11357.7633,E,1,04,2.3,-64.0,M,,,,0000
$GPGLL,2232.1287,N,11357.7633,E,145525.000,A
$GPRMC,145525.000,A,2232.1287,N,11357.7633,E,0.00,334.65,171110,,
$GPGGA,145526.000,2232.1287,N,11357.7633,E,1,04,2.3,-64.0,M,,,,0000
$GPGLL,2232.1287,N,11357.7633,E,145526.000,A
$GPRMC,145526.000,A,2232.1287,N,11357.7633,E,0.00,334.65,171110,,
$GPGGA,145527.000,2232.1287,N,11357.7633,E,1,04,2.3,-64.0,M,,,,0000
$GPGLL,2232.1287,N,11357.7633,E,145527.000,A
$GPRMC,145527.000,A,2232.1287,N,11357.7633,E,0.00,334.65,171110,,
$GPGGA,145528.000,2232.1287,N,11357.7633,E,1,04,2.3,-64.0,M,,,,0000
$GPGLL,2232.1287,N,11357.7633,E,145528.000,A
$GPGSA,A,3,18,09,15,25,,,,,,,,,2.5,2.3,1.0
$GPGSV,3,1,10,18,64,003,19,21,52,210,,09,50,034,39,22,35,326,
$GPGSV,3,2,10,12,30,118,,27,28,036,15,14,25,283,,25,22,160,22
$GPGSV,3,3,10,15,21,054,22,30,01,192,
$GPRMC,145528.000,A,2232.1287,N,11357.7633,E,0.00,334.65,171110,,
$GPGGA,145529.000,2232.1287,N,11357.7633,E,1,03,3.9,-64.0,M,,,,0000
$GPGLL,2232.1287,N,11357.7633,E,145529.000,A
$GPRMC,145529.000,A,2232.1287,N,11357.7633,E,0.00,334.65,171110,,
$GPGGA,145530.000,2232.1287,N,11357.7633,E,1,03,3.9,-64.0,M,,,,0000
$GPGLL,2232.1287,N,11357.7633,E,145530.000,A
$GPRMC,145530.000,A,2232.1287,N,11357.7633,E,0.00,334.65,171110,,
$GPGGA,145531.000,2232.1287,N,11357.7633,E,1,03,3.9,-64.0,M,,,,0000
$GPGLL,2232.1287,N,11357.7633,E,145531.000,A
$GPRMC,145531.000,A,2232.1287,N,11357.7633,E,0.00,334.65,171110,,
$GPGGA,145532.000,2232.1287,N,11357.7633,E,1,03,3.9,-64.0,M,,,,0000
$GPGLL,2232.1287,N,11357.7633,E,145532.000,A
$GPRMC,145532.000,A,2232.1287,N,11357.7633,E,0.00,334.65,171110,,
$GPGGA,145533.000,2232.1287,N,11357.7633,E,1,03,3.9,-64.0,M,,,,0000
$GPGLL,2232.1287,N,11357.7633,E,145533.000,A
$GPGSA,A,2,09,15,25,,,,,,,,,,4.0,3.9,1.0
$GPGSV,3,1,10,18,64,003,18,21,52,210,,09,50,034,39,22,35,326,
$GPGSV,3,2,10,12,30,118,,27,28,036,15,14,25,283,,25,22,160,21
$GPGSV,3,3,10,15,21,054,22,30,01,192,
$GPRMC,145533.000,A,2232.1287,N,11357.7633,E,0.00,334.65,171110,,
$GPGGA,145534.000,2232.1287,N,11357.7633,E,1,03,3.9,-64.0,M,,,,0000
$GPGLL,2232.1287,N,11357.7633,E,145534.000,A
$GPRMC,145534.000,A,2232.1287,N,11357.7633,E,0.00,334.65,171110,,
$GPGGA,145535.000,2232.1287,N,11357.7633,E,1,03,3.9,-64.0,M,,,,0000
$GPGLL,2232.1287,N,11357.7633,E,145535.000,A
$GPRMC,145535.000,A,2232.1287,N,11357.7633,E,0.00,334.65,171110,,
$GPGGA,145536.000,2232.1287,N,11357.7633,E,1,03,3.9,-64.0,M,,,,0000
$GPGLL,2232.1287,N,11357.7633,E,145536.000,A
$GPRMC,145536.000,A,2232.1287,N,11357.7633,E,0.00,334.65,171110,,
$GPGGA,145537.000,2232.1287,N,11357.7633,E,1,03,3.9,-64.0,M,,,,0000
$GPGLL,2232.1287,N,11357.7633,E,145537.000,A
$GPRMC,145537.000,A,2232.1287,N,11357.7633,E,0.00,334.65,171110,,
$GPGGA,145538.000,2232.1287,N,11357.7633,E,1,03,3.9,-64.0,M,,,,0000
$GPGLL,2232.1287,N,11357.7633,E,145538.000,A
$GPGSA,A,2,09,15,25,,,,,,,,,,4.0,3.9,1.0
$GPGSV,3,1,10,18,64,003,17,21,52,210,,09,50,034,39,22,35,326,
$GPGSV,3,2,10,12,30,118,,27,28,036,14,14,25,283,,25,22,160,21
$GPGSV,3,3,10,15,21,054,23,30,01,192,
$GPRMC,145538.000,A,2232.1287,N,11357.7633,E,0.00,334.65,171110,,
$GPGGA,145539.000,2232.1287,N,11357.7633,E,1,03,3.9,-64.0,M,,,,0000
$GPGLL,2232.1287,N,11357.7633,E,145539.000,A
$GPRMC,145539.000,A,2232.1287,N,11357.7633,E,0.00,334.65,171110,,
$GPGGA,145540.000,2232.1287,N,11357.7633,E,1,03,3.9,-64.0,M,,,,0000
$GPGLL,2232.1287,N,11357.7633,E,145540.000,A
$GPRMC,145540.000,A,2232.1287,N,11357.7633,E,0.00,334.65,171110,,
$GPGGA,145541.000,2232.1287,N,11357.7633,E,1,04,2.3,-64.0,M,,,,0000
$GPGLL,2232.1287,N,11357.7633,E,145541.000,A
$GPRMC,145541.000,A,2232.1287,N,11357.7633,E,0.00,334.65,171110,,
$GPGGA,145542.000,2232.1286,N,11357.7628,E,1,04,2.3,-64.0,M,,,,0000
$GPGLL,2232.1286,N,11357.7628,E,145542.000,A
$GPRMC,145542.000,A,2232.1286,N,11357.7628,E,3.14,334.65,171110,,
$GPGGA,145543.000,2232.1276,N,11357.7592,E,1,04,2.3,-46.9,M,,,,0000
$GPGLL,2232.1276,N,11357.7592,E,145543.000,A
$GPGSA,A,3,18,09,15,25,,,,,,,,,2.5,2.3,1.0
$GPGSV,3,1,10,18,64,003,18,21,52,210,,09,50,034,39,22,35,326,
$GPGSV,3,2,10,12,30,118,,27,28,036,15,14,25,283,,25,22,160,21
$GPGSV,3,3,10,15,21,054,23,30,01,192,
$GPRMC,145543.000,A,2232.1276,N,11357.7592,E,2.07,334.65,171110,,
$GPGGA,145544.000,2232.1274,N,11357.7589,E,1,03,3.9,-46.0,M,,,,0000
$GPGLL,2232.1274,N,11357.7589,E,145544.000,A
$GPRMC,145544.000,A,2232.1274,N,11357.7589,E,1.21,334.65,171110,,
$GPGGA,145545.000,2232.1272,N,11357.7584,E,1,03,3.9,-46.0,M,,,,0000
$GPGLL,2232.1272,N,11357.7584,E,145545.000,A
$GPRMC,145545.000,A,2232.1272,N,11357.7584,E,0.00,334.65,171110,,
$GPGGA,145546.000,2232.1269,N,11357.7580,E,1,04,2.3,-46.0,M,,,,0000
$GPGLL,2232.1269,N,11357.7580,E,145546.000,A
$GPRMC,145546.000,A,2232.1269,N,11357.7580,E,0.00,334.65,171110,,
$GPGGA,145547.000,2232.1268,N,11357.7577,E,1,04,2.3,-46.0,M,,,,0000
$GPGLL,2232.1268,N,11357.7577,E,145547.000,A
$GPRMC,145547.000,A,2232.1268,N,11357.7577,E,0.00,334.65,171110,,
$GPGGA,145548.000,2232.1266,N,11357.7574,E,1,04,2.3,-46.0,M,,,,0000
$GPGLL,2232.1266,N,11357.7574,E,145548.000,A
$GPGSA,A,3,18,09,15,25,,,,,,,,,2.5,2.3,1.0
$GPGSV,3,1,10,18,64,003,20,21,52,210,,09,50,034,40,22,35,326,
$GPGSV,3,2,10,12,30,118,,27,28,036,16,14,25,283,,25,22,160,21
$GPGSV,3,3,10,15,21,054,24,30,01,192,
$GPRMC,145548.000,A,2232.1266,N,11357.7574,E,0.00,334.65,171110,,
$GPGGA,145549.000,2232.1265,N,11357.7572,E,1,04,2.3,-46.0,M,,,,0000
$GPGLL,2232.1265,N,11357.7572,E,145549.000,A
$GPRMC,145549.000,A,2232.1265,N,11357.7572,E,0.00,334.65,171110,,
$GPGGA,145550.000,2232.1265,N,11357.7571,E,1,05,6.1,-46.0,M,,,,0000
$GPGLL,2232.1265,N,11357.7571,E,145550.000,A
$GPRMC,145550.000,A,2232.1265,N,11357.7571,E,0.00,334.65,171110,,
$GPGGA,145551.000,2232.1264,N,11357.7569,E,1,05,6.1,-46.0,M,,,,0000
$GPGLL,2232.1264,N,11357.7569,E,145551.000,A
$GPRMC,145551.000,A,2232.1264,N,11357.7569,E,0.00,334.65,171110,,
$GPGGA,145552.000,2232.1263,N,11357.7568,E,1,05,6.1,-46.0,M,,,,0000
$GPGLL,2232.1263,N,11357.7568,E,145552.000,A
$GPRMC,145552.000,A,2232.1263,N,11357.7568,E,0.00,334.65,171110,,
$GPGGA,145553.000,2232.1263,N,11357.7567,E,1,05,6.1,-46.0,M,,,,0000
$GPGLL,2232.1263,N,11357.7567,E,145553.000,A
$GPGSA,A,3,18,09,15,25,27,,,,,,,,9.0,6.1,6.7
$GPGSV,3,1,10,18,64,003,25,21,52,210,16,09,50,034,40,22,35,326,
$GPGSV,3,2,10,12,30,118,,27,28,036,16,14,25,283,,25,22,160,21
$GPGSV,3,3,10,15,21,054,24,30,01,192,
$GPRMC,145553.000,A,2232.1263,N,11357.7567,E,0.00,334.65,171110,,
$GPGGA,145554.000,2232.1262,N,11357.7567,E,1,04,2.3,-46.0,M,,,,0000
$GPGLL,2232.1262,N,11357.7567,E,145554.000,A
$GPRMC,145554.000,A,2232.1262,N,11357.7567,E,0.00,334.65,171110,,
$GPGGA,145555.000,2232.1262,N,11357.7566,E,1,04,2.3,-46.0,M,,,,0000
$GPGLL,2232.1262,N,11357.7566,E,145555.000,A
$GPRMC,145555.000,A,2232.1262,N,11357.7566,E,0.00,334.65,171110,,
$GPGGA,145556.000,2232.1262,N,11357.7566,E,1,04,2.3,-46.0,M,,,,0000
$GPGLL,2232.1262,N,11357.7566,E,145556.000,A
$GPRMC,145556.000,A,2232.1262,N,11357.7566,E,0.00,334.65,171110,,
$GPGGA,145557.000,2232.1262,N,11357.7565,E,1,04,2.3,-46.0,M,,,,0000
$GPGLL,2232.1262,N,11357.7565,E,145557.000,A
$GPRMC,145557.000,A,2232.1262,N,11357.7565,E,0.00,334.65,171110,,
$GPGGA,145558.000,2232.1262,N,11357.7565,E,1,05,6.1,-46.0,M,,,,0000
$GPGLL,2232.1262,N,11357.7565,E,145558.000,A
$GPGSA,A,3,18,09,15,25,27,,,,,,,,9.1,6.1,6.7
$GPGSV,3,1,10,18,64,003,28,21,52,210,16,09,50,034,40,22,35,326,11
$GPGSV,3,2,10,12,30,118,,27,28,036,17,14,25,283,,25,22,160,21
$GPGSV,3,3,10,15,21,054,25,30,01,192,
$GPRMC,145558.000,A,2232.1262,N,11357.7565,E,0.00,334.65,171110,,
$GPGGA,145559.000,2232.1262,N,11357.7565,E,1,04,2.3,-46.0,M,,,,0000
$GPGLL,2232.1262,N,11357.7565,E,145559.000,A
$GPRMC,145559.000,A,2232.1262,N,11357.7565,E,0.00,334.65,171110,,
$GPGGA,145600.000,2232.1261,N,11357.7565,E,1,04,2.3,-46.0,M,,,,0000
$GPGLL,2232.1261,N,11357.7565,E,145600.000,A
$GPRMC,145600.000,A,2232.1261,N,11357.7565,E,0.00,334.65,171110,,
$GPGGA,145601.000,2232.1261,N,11357.7564,E,1,04,2.3,-46.0,M,,,,0000
$GPGLL,2232.1261,N,11357.7564,E,145601.000,A
$GPRMC,145601.000,A,2232.1261,N,11357.7564,E,0.00,334.65,171110,,
$GPGGA,145602.000,2232.1261,N,11357.7564,E,1,04,2.3,-46.0,M,,,,0000
$GPGLL,2232.1261,N,11357.7564,E,145602.000,A
$GPRMC,145602.000,A,2232.1261,N,11357.7564,E,0.00,334.65,171110,,
$GPGGA,145603.000,2232.1261,N,11357.7564,E,1,05,6.1,-46.0,M,,,,0000
$GPGLL,2232.1261,N,11357.7564,E,145603.000,A
$GPGSA,A,3,18,09,15,25,27,,,,,,,,9.1,6.1,6.7
$GPGSV,3,1,10,18,64,003,28,21,52,210,16,09,50,034,40,22,35,326,
$GPGSV,3,2,10,12,30,118,,27,28,036,18,14,25,283,,25,22,160,20
$GPGSV,3,3,10,15,21,054,25,30,01,192,
$GPRMC,145603.000,A,2232.1261,N,11357.7564,E,0.00,334.65,171110,,
$GPGGA,145604.000,2232.1261,N,11357.7564,E,1,05,6.1,-46.0,M,,,,0000
$GPGLL,2232.1261,N,11357.7564,E,145604.000,A
$GPRMC,145604.000,A,2232.1261,N,11357.7564,E,0.00,334.65,171110,,
$GPGGA,145605.000,2232.1261,N,11357.7564,E,1,05,6.1,-46.0,M,,,,0000
$GPGLL,2232.1261,N,11357.7564,E,145605.000,A
$GPRMC,145605.000,A,2232.1261,N,11357.7564,E,0.00,334.65,171110,,
$GPGGA,145606.000,2232.1261,N,11357.7564,E,1,04,2.3,-46.0,M,,,,0000
$GPGLL,2232.1261,N,11357.7564,E,145606.000,A
$GPRMC,145606.000,A,2232.1261,N,11357.7564,E,0.00,334.65,171110,,
$GPGGA,145607.000,2232.1261,N,11357.7564,E,1,04,2.3,-46.0,M,,,,0000
$GPGLL,2232.1261,N,11357.7564,E,145607.000,A
$GPRMC,145607.000,A,2232.1261,N,11357.7564,E,0.00,334.65,171110,,
$GPGGA,145608.000,2232.1261,N,11357.7564,E,1,05,6.1,-46.0,M,,,,0000
$GPGLL,2232.1261,N,11357.7564,E,145608.000,A
$GPGSA,A,3,18,09,15,25,27,,,,,,,,9.1,6.1,6.7
$GPGSV,3,1,10,18,64,003,29,21,52,210,15,09,50,034,40,22,35,326,
$GPGSV,3,2,10,12,30,118,,27,28,036,17,14,25,283,,25,22,160,20
$GPGSV,3,3,10,15,21,054,26,30,01,192,
$GPRMC,145608.000,A,2232.1261,N,11357.7564,E,0.00,334.65,171110,,
$GPGGA,145609.000,2232.1261,N,11357.7564,E,1,05,6.1,-46.0,M,,,,0000
$GPGLL,2232.1261,N,11357.7564,E,145609.000,A
$GPRMC,145609.000,A,2232.1261,N,11357.7564,E,0.00,334.65,171110,,
$GPGGA,145610.000,2232.1261,N,11357.7564,E,1,05,6.1,-46.0,M,,,,0000
$GPGLL,2232.1261,N,11357.7564,E,145610.000,A
$GPRMC,145610.000,A,2232.1261,N,11357.7564,E,0.00,334.65,171110,,
$GPGGA,145611.000,2232.1261,N,11357.7564,E,1,05,6.1,-46.0,M,,,,0000
$GPGLL,2232.1261,N,11357.7564,E,145611.000,A
$GPRMC,145611.000,A,2232.1261,N,11357.7564,E,0.00,334.65,171110,,
$GPGGA,145612.000,2232.1261,N,11357.7564,E,1,04,2.3,-46.0,M,,,,0000
$GPGLL,2232.1261,N,11357.7564,E,145612.000,A
$GPRMC,145612.000,A,2232.1261,N,11357.7564,E,0.00,334.65,171110,,
$GPGGA,145613.000,2232.1261,N,11357.7564,E,1,05,6.1,-46.0,M,,,,0000
$GPGLL,2232.1261,N,11357.7564,E,145613.000,A
$GPGSA,A,3,18,09,15,25,27,,,,,,,,9.1,6.1,6.7
$GPGSV,3,1,10,18,64,003,30,21,52,210,14,09,50,034,40,22,35,326,
$GPGSV,3,2,10,12,30,118,,27,28,036,18,14,25,283,,25,22,160,20
$GPGSV,3,3,10,15,21,054,27,30,01,192,
$GPRMC,145613.000,A,2232.1261,N,11357.7564,E,0.00,334.65,171110,,
$GPGGA,145614.000,2232.1261,N,11357.7564,E,1,05,6.1,-46.0,M,,,,0000
$GPGLL,2232.1261,N,11357.7564,E,145614.000,A
$GPRMC,145614.000,A,2232.1261,N,11357.7564,E,0.00,334.65,171110,,
$GPGGA,145615.000,2232.1261,N,11357.7564,E,1,05,6.1,-46.0,M,,,,0000
$GPGLL,2232.1261,N,11357.7564,E,145615.000,A
$GPRMC,145615.000,A,2232.1261,N,11357.7564,E,0.00,334.65,171110,,
$GPGGA,145616.000,2232.1261,N,11357.7564,E,1,04,2.3,-46.0,M,,,,0000
$GPGLL,2232.1261,N,11357.7564,E,145616.000,A
$GPRMC,145616.000,A,2232.1261,N,11357.7564,E,0.00,334.65,171110,,
$GPGGA,145617.000,2232.1256,N,11357.7573,E,1,05,6.1,-46.0,M,,,,0000
$GPGLL,2232.1256,N,11357.7573,E,145617.000,A
$GPRMC,145617.000,A,2232.1256,N,11357.7573,E,3.01,334.65,171110,,
$GPGGA,145618.000,2232.1210,N,11357.7656,E,1,05,6.1,-9.5,M,,,,0000
$GPGLL,2232.1210,N,11357.7656,E,145618.000,A
$GPGSA,A,3,18,09,15,25,27,,,,,,,,9.1,6.1,6.7
$GPGSV,3,1,10,18,64,003,31,21,52,210,13,09,50,034,39,22,35,326,
$GPGSV,3,2,10,12,30,118,,27,28,036,18,14,25,283,,25,22,160,20
$GPGSV,3,3,10,15,21,054,27,30,01,192,
$GPRMC,145618.000,A,2232.1210,N,11357.7656,E,2.85,334.65,171110,,
$GPGGA,145619.000,2232.1189,N,11357.7697,E,1,05,6.1,2.5,M,,,,0000
$GPGLL,2232.1189,N,11357.7697,E,145619.000,A
$GPRMC,145619.000,A,2232.1189,N,11357.7697,E,2.47,334.65,171110,,
$GPGGA,145620.000,2232.1185,N,11357.7705,E,1,05,6.1,2.0,M,,,,0000
$GPGLL,2232.1185,N,11357.7705,E,145620.000,A
$GPRMC,145620.000,A,2232.1185,N,11357.7705,E,2.07,334.65,171110,,
$GPGGA,145621.000,2232.1178,N,11357.7718,E,1,05,6.1,2.0,M,,,,0000
$GPGLL,2232.1178,N,11357.7718,E,145621.000,A
$GPRMC,145621.000,A,2232.1178,N,11357.7718,E,0.00,334.65,171110,,
$GPGGA,145622.000,2232.1173,N,11357.7729,E,1,04,2.3,2.0,M,,,,0000
$GPGLL,2232.1173,N,11357.7729,E,145622.000,A
$GPRMC,145622.000,A,2232.1173,N,11357.7729,E,0.00,334.65,171110,,
$GPGGA,145623.000,2232.1169,N,11357.7738,E,1,05,6.1,2.0,M,,,,0000
$GPGLL,2232.1169,N,11357.7738,E,145623.000,A
$GPGSA,A,3,18,09,15,25,27,,,,,,,,9.1,6.1,6.7
$GPGSV,3,1,10,18,64,003,31,21,52,210,12,09,50,034,39,22,35,326,
$GPGSV,3,2,10,12,30,118,,27,28,036,19,14,25,283,,25,22,160,20
$GPGSV,3,3,10,15,21,054,27,30,01,192,
$GPRMC,145623.000,A,2232.1169,N,11357.7738,E,0.00,334.65,171110,,
$GPGGA,145624.000,2232.1166,N,11357.7745,E,1,05,6.1,2.0,M,,,,0000
$GPGLL,2232.1166,N,11357.7745,E,145624.000,A
$GPRMC,145624.000,A,2232.1166,N,11357.7745,E,0.00,334.65,171110,,
$GPGGA,145625.000,2232.1163,N,11357.7750,E,1,05,6.1,2.0,M,,,,0000
$GPGLL,2232.1163,N,11357.7750,E,145625.000,A
$GPRMC,145625.000,A,2232.1163,N,11357.7750,E,0.00,334.65,171110,,
$GPGGA,145626.000,2232.1161,N,11357.7755,E,1,05,6.1,2.0,M,,,,0000
$GPGLL,2232.1161,N,11357.7755,E,145626.000,A
$GPRMC,145626.000,A,2232.1161,N,11357.7755,E,0.00,334.65,171110,,
$GPGGA,145627.000,2232.1159,N,11357.7758,E,1,05,6.1,2.0,M,,,,0000
$GPGLL,2232.1159,N,11357.7758,E,145627.000,A
$GPRMC,145627.000,A,2232.1159,N,11357.7758,E,0.00,334.65,171110,,
$GPGGA,145628.000,2232.1158,N,11357.7761,E,1,05,6.1,2.0,M,,,,0000
$GPGLL,2232.1158,N,11357.7761,E,145628.000,A
$GPGSA,A,3,18,09,15,25,27,,,,,,,,9.1,6.1,6.7
$GPGSV,3,1,10,18,64,003,32,21,52,210,12,09,50,034,39,22,35,326,
$GPGSV,3,2,10,12,30,118,,27,28,036,19,14,25,283,,25,22,160,20
$GPGSV,3,3,10,15,21,054,27,30,01,192,
$GPRMC,145628.000,A,2232.1158,N,11357.7761,E,0.00,334.65,171110,,
$GPGGA,145629.000,2232.1156,N,11357.7763,E,1,05,6.1,2.0,M,,,,0000
$GPGLL,2232.1156,N,11357.7763,E,145629.000,A
$GPRMC,145629.000,A,2232.1156,N,11357.7763,E,0.00,334.65,171110,,
$GPGGA,145630.000,2232.1152,N,11357.7773,E,1,05,6.1,2.0,M,,,,0000
$GPGLL,2232.1152,N,11357.7773,E,145630.000,A
$GPRMC,145630.000,A,2232.1152,N,11357.7773,E,2.86,334.65,171110,,
